{"fullgameschedule": {"gameentry": [{"id": "32421", "date": "2016-04-16", "awayTeam": {"ID": "87", "City": "Indiana", "Abbreviation": "IND", "Name": "Pacers"}, "location": "Air Canada Centre", "homeTeam": {"ID": "81", "City": "Toronto", "Abbreviation": "TOR", "Name": "Raptors"}, "time": "7:00PM"}, {"id": "32422", "date": "2016-04-16", "awayTeam": {"ID": "109", "City": "Houston", "Abbreviation": "HOU", "Name": "Rockets"}, "location": "Oracle Arena", "homeTeam": {"ID": "101", "City": "Golden State", "Abbreviation": "GSW", "Name": "Warriors"}, "time": "7:00PM"}, {"id": "32423", "date": "2016-04-16", "awayTeam": {"ID": "82", "City": "Boston", "Abbreviation": "BOS", "Name": "Celtics"}, "location": "Philips Arena", "homeTeam": {"ID": "91", "City": "Atlanta", "Abbreviation": "ATL", "Name": "Hawks"}, "time": "7:00PM"}, {"id": "32424", "date": "2016-04-16", "awayTeam": {"ID": "108", "City": "Dallas", "Abbreviation": "DAL", "Name": "Mavericks"}, "location": "Chesapeake Energy Arena", "homeTeam": {"ID": "96", "City": "Oklahoma City", "Abbreviation": "OKL", "Name": "Thunder"}, "time": "7:00PM"}, {"id": "32428", "date": "2016-04-17", "awayTeam": {"ID": "97", "City": "Portland", "Abbreviation": "POR", "Name": "Trail Blazers"}, "location": "Staples Center", "homeTeam": {"ID": "102", "City": "Los Angeles", "Abbreviation": "LAC", "Name": "Clippers"}, "time": "7:00PM"}, {"id": "32427", "date": "2016-04-17", "awayTeam": {"ID": "107", "City": "Memphis", "Abbreviation": "MEM", "Name": "Grizzlies"}, "location": "AT&T Center", "homeTeam": {"ID": "106", "City": "San Antonio", "Abbreviation": "SAS", "Name": "Spurs"}, "time": "7:00PM"}, {"id": "32426", "date": "2016-04-17", "awayTeam": {"ID": "93", "City": "Charlotte", "Abbreviation": "CHA", "Name": "Hornets"}, "location": "American Airlines Arena", "homeTeam": {"ID": "92", "City": "Miami", "Abbreviation": "MIA", "Name": "Heat"}, "time": "7:00PM"}, {"id": "32425", "date": "2016-04-17", "awayTeam": {"ID": "88", "City": "Detroit", "Abbreviation": "DET", "Name": "Pistons"}, "location": "Quicken Loans Arena", "homeTeam": {"ID": "86", "City": "Cleveland", "Abbreviation": "CLE", "Name": "Cavaliers"}, "time": "7:00PM"}, {"id": "32429", "date": "2016-04-18", "awayTeam": {"ID": "87", "City": "Indiana", "Abbreviation": "IND", "Name": "Pacers"}, "location": "Air Canada Centre", "homeTeam": {"ID": "81", "City": "Toronto", "Abbreviation": "TOR", "Name": "Raptors"}, "time": "7:00PM"}, {"id": "32430", "date": "2016-04-18", "awayTeam": {"ID": "108", "City": "Dallas", "Abbreviation": "DAL", "Name": "Mavericks"}, "location": "Chesapeake Energy Arena", "homeTeam": {"ID": "96", "City": "Oklahoma City", "Abbreviation": "OKL", "Name": "Thunder"}, "time": "7:00PM"}, {"id": "32431", "date": "2016-04-18", "awayTeam": {"ID": "109", "City": "Houston", "Abbreviation": "HOU", "Name": "Rockets"}, "location": "Oracle Arena", "homeTeam": {"ID": "101", "City": "Golden State", "Abbreviation": "GSW", "Name": "Warriors"}, "time": "7:00PM"}, {"id": "32433", "date": "2016-04-19", "awayTeam": {"ID": "107", "City": "Memphis", "Abbreviation": "MEM", "Name": "Grizzlies"}, "location": "AT&T Center", "homeTeam": {"ID": "106", "City": "San Antonio", "Abbreviation": "SAS", "Name": "Spurs"}, "time": "7:00PM"}, {"id": "32432", "date": "2016-04-19", "awayTeam": {"ID": "82", "City": "Boston", "Abbreviation": "BOS", "Name": "Celtics"}, "location": "Philips Arena", "homeTeam": {"ID": "91", "City": "Atlanta", "Abbreviation": "ATL", "Name": "Hawks"}, "time": "7:00PM"}, {"id": "32434", "date": "2016-04-20", "awayTeam": {"ID": "93", "City": "Charlotte", "Abbreviation": "CHA", "Name": "Hornets"}, "location": "American Airlines Arena", "homeTeam": {"ID": "92", "City": "Miami", "Abbreviation": "MIA", "Name": "Heat"}, "time": "7:00PM"}, {"id": "32435", "date": "2016-04-20", "awayTeam": {"ID": "88", "City": "Detroit", "Abbreviation": "DET", "Name": "Pistons"}, "location": "Quicken Loans Arena", "homeTeam": {"ID": "86", "City": "Cleveland", "Abbreviation": "CLE", "Name": "Cavaliers"}, "time": "7:00PM"}, {"id": "32436", "date": "2016-04-20", "awayTeam": {"ID": "97", "City": "Portland", "Abbreviation": "POR", "Name": "Trail Blazers"}, "location": "Staples Center", "homeTeam": {"ID": "102", "City": "Los Angeles", "Abbreviation": "LAC", "Name": "Clippers"}, "time": "7:00PM"}, {"id": "32439", "date": "2016-04-21", "awayTeam": {"ID": "101", "City": "Golden State", "Abbreviation": "GSW", "Name": "Warriors"}, "location": "Toyota Center", "homeTeam": {"ID": "109", "City": "Houston", "Abbreviation": "HOU", "Name": "Rockets"}, "time": "7:00PM"}, {"id": "32438", "date": "2016-04-21", "awayTeam": {"ID": "81", "City": "Toronto", "Abbreviation": "TOR", "Name": "Raptors"}, "location": "Bankers Life Fieldhouse", "homeTeam": {"ID": "87", "City": "Indiana", "Abbreviation": "IND", "Name": "Pacers"}, "time": "7:00PM"}, {"id": "32437", "date": "2016-04-21", "awayTeam": {"ID": "96", "City": "Oklahoma City", "Abbreviation": "OKL", "Name": "Thunder"}, "location": "American Airlines Center", "homeTeam": {"ID": "108", "City": "Dallas", "Abbreviation": "DAL", "Name": "Mavericks"}, "time": "7:00PM"}, {"id": "32440", "date": "2016-04-22", "awayTeam": {"ID": "86", "City": "Cleveland", "Abbreviation": "CLE", "Name": "Cavaliers"}, "location": "Palace of Auburn Hills", "homeTeam": {"ID": "88", "City": "Detroit", "Abbreviation": "DET", "Name": "Pistons"}, "time": "7:00PM"}, {"id": "32441", "date": "2016-04-22", "awayTeam": {"ID": "91", "City": "Atlanta", "Abbreviation": "ATL", "Name": "Hawks"}, "location": "TD Garden", "homeTeam": {"ID": "82", "City": "Boston", "Abbreviation": "BOS", "Name": "Celtics"}, "time": "7:00PM"}, {"id": "32486", "date": "2016-04-22", "awayTeam": {"ID": "106", "City": "San Antonio", "Abbreviation": "SAS", "Name": "Spurs"}, "location": "FedEx Forum", "homeTeam": {"ID": "107", "City": "Memphis", "Abbreviation": "MEM", "Name": "Grizzlies"}, "time": "10:30PM"}, {"id": "32445", "date": "2016-04-23", "awayTeam": {"ID": "102", "City": "Los Angeles", "Abbreviation": "LAC", "Name": "Clippers"}, "location": "Moda Center", "homeTeam": {"ID": "97", "City": "Portland", "Abbreviation": "POR", "Name": "Trail Blazers"}, "time": "7:00PM"}, {"id": "32444", "date": "2016-04-23", "awayTeam": {"ID": "96", "City": "Oklahoma City", "Abbreviation": "OKL", "Name": "Thunder"}, "location": "American Airlines Center", "homeTeam": {"ID": "108", "City": "Dallas", "Abbreviation": "DAL", "Name": "Mavericks"}, "time": "7:00PM"}, {"id": "32443", "date": "2016-04-23", "awayTeam": {"ID": "92", "City": "Miami", "Abbreviation": "MIA", "Name": "Heat"}, "location": "Time Warner Cable Arena", "homeTeam": {"ID": "93", "City": "Charlotte", "Abbreviation": "CHA", "Name": "Hornets"}, "time": "7:00PM"}, {"id": "32442", "date": "2016-04-23", "awayTeam": {"ID": "81", "City": "Toronto", "Abbreviation": "TOR", "Name": "Raptors"}, "location": "Bankers Life Fieldhouse", "homeTeam": {"ID": "87", "City": "Indiana", "Abbreviation": "IND", "Name": "Pacers"}, "time": "7:00PM"}, {"id": "32446", "date": "2016-04-24", "awayTeam": {"ID": "106", "City": "San Antonio", "Abbreviation": "SAS", "Name": "Spurs"}, "location": "FedEx Forum", "homeTeam": {"ID": "107", "City": "Memphis", "Abbreviation": "MEM", "Name": "Grizzlies"}, "time": "7:00PM"}, {"id": "32447", "date": "2016-04-24", "awayTeam": {"ID": "101", "City": "Golden State", "Abbreviation": "GSW", "Name": "Warriors"}, "location": "Toyota Center", "homeTeam": {"ID": "109", "City": "Houston", "Abbreviation": "HOU", "Name": "Rockets"}, "time": "7:00PM"}, {"id": "32448", "date": "2016-04-24", "awayTeam": {"ID": "91", "City": "Atlanta", "Abbreviation": "ATL", "Name": "Hawks"}, "location": "TD Garden", "homeTeam": {"ID": "82", "City": "Boston", "Abbreviation": "BOS", "Name": "Celtics"}, "time": "7:00PM"}, {"id": "32449", "date": "2016-04-24", "awayTeam": {"ID": "86", "City": "Cleveland", "Abbreviation": "CLE", "Name": "Cavaliers"}, "location": "Palace of Auburn Hills", "homeTeam": {"ID": "88", "City": "Detroit", "Abbreviation": "DET", "Name": "Pistons"}, "time": "7:00PM"}, {"id": "32452", "date": "2016-04-25", "awayTeam": {"ID": "102", "City": "Los Angeles", "Abbreviation": "LAC", "Name": "Clippers"}, "location": "Moda Center", "homeTeam": {"ID": "97", "City": "Portland", "Abbreviation": "POR", "Name": "Trail Blazers"}, "time": "7:00PM"}, {"id": "32451", "date": "2016-04-25", "awayTeam": {"ID": "108", "City": "Dallas", "Abbreviation": "DAL", "Name": "Mavericks"}, "location": "Chesapeake Energy Arena", "homeTeam": {"ID": "96", "City": "Oklahoma City", "Abbreviation": "OKL", "Name": "Thunder"}, "time": "7:00PM"}, {"id": "32450", "date": "2016-04-25", "awayTeam": {"ID": "92", "City": "Miami", "Abbreviation": "MIA", "Name": "Heat"}, "location": "Time Warner Cable Arena", "homeTeam": {"ID": "93", "City": "Charlotte", "Abbreviation": "CHA", "Name": "Hornets"}, "time": "7:00PM"}, {"id": "32453", "date": "2016-04-26", "awayTeam": {"ID": "87", "City": "Indiana", "Abbreviation": "IND", "Name": "Pacers"}, "location": "Air Canada Centre", "homeTeam": {"ID": "81", "City": "Toronto", "Abbreviation": "TOR", "Name": "Raptors"}, "time": "7:00PM"}, {"id": "32454", "date": "2016-04-26", "awayTeam": {"ID": "82", "City": "Boston", "Abbreviation": "BOS", "Name": "Celtics"}, "location": "Philips Arena", "homeTeam": {"ID": "91", "City": "Atlanta", "Abbreviation": "ATL", "Name": "Hawks"}, "time": "7:00PM"}, {"id": "32457", "date": "2016-04-27", "awayTeam": {"ID": "109", "City": "Houston", "Abbreviation": "HOU", "Name": "Rockets"}, "location": "Oracle Arena", "homeTeam": {"ID": "101", "City": "Golden State", "Abbreviation": "GSW", "Name": "Warriors"}, "time": "7:00PM"}, {"id": "32456", "date": "2016-04-27", "awayTeam": {"ID": "97", "City": "Portland", "Abbreviation": "POR", "Name": "Trail Blazers"}, "location": "Staples Center", "homeTeam": {"ID": "102", "City": "Los Angeles", "Abbreviation": "LAC", "Name": "Clippers"}, "time": "7:00PM"}, {"id": "32455", "date": "2016-04-27", "awayTeam": {"ID": "93", "City": "Charlotte", "Abbreviation": "CHA", "Name": "Hornets"}, "location": "American Airlines Arena", "homeTeam": {"ID": "92", "City": "Miami", "Abbreviation": "MIA", "Name": "Heat"}, "time": "7:00PM"}, {"id": "32458", "date": "2016-04-28", "awayTeam": {"ID": "91", "City": "Atlanta", "Abbreviation": "ATL", "Name": "Hawks"}, "location": "TD Garden", "homeTeam": {"ID": "82", "City": "Boston", "Abbreviation": "BOS", "Name": "Celtics"}, "time": "7:00PM"}, {"id": "32459", "date": "2016-04-29", "awayTeam": {"ID": "81", "City": "Toronto", "Abbreviation": "TOR", "Name": "Raptors"}, "location": "Bankers Life Fieldhouse", "homeTeam": {"ID": "87", "City": "Indiana", "Abbreviation": "IND", "Name": "Pacers"}, "time": "7:00PM"}, {"id": "32460", "date": "2016-04-29", "awayTeam": {"ID": "92", "City": "Miami", "Abbreviation": "MIA", "Name": "Heat"}, "location": "Time Warner Cable Arena", "homeTeam": {"ID": "93", "City": "Charlotte", "Abbreviation": "CHA", "Name": "Hornets"}, "time": "7:00PM"}, {"id": "32461", "date": "2016-04-29", "awayTeam": {"ID": "102", "City": "Los Angeles", "Abbreviation": "LAC", "Name": "Clippers"}, "location": "Moda Center", "homeTeam": {"ID": "97", "City": "Portland", "Abbreviation": "POR", "Name": "Trail Blazers"}, "time": "7:00PM"}, {"id": "32462", "date": "2016-04-30", "awayTeam": {"ID": "96", "City": "Oklahoma City", "Abbreviation": "OKL", "Name": "Thunder"}, "location": "AT&T Center", "homeTeam": {"ID": "106", "City": "San Antonio", "Abbreviation": "SAS", "Name": "Spurs"}, "time": "7:00PM"}, {"id": "32465", "date": "2016-05-01", "awayTeam": {"ID": "87", "City": "Indiana", "Abbreviation": "IND", "Name": "Pacers"}, "location": "Air Canada Centre", "homeTeam": {"ID": "81", "City": "Toronto", "Abbreviation": "TOR", "Name": "Raptors"}, "time": "7:00PM"}, {"id": "32464", "date": "2016-05-01", "awayTeam": {"ID": "97", "City": "Portland", "Abbreviation": "POR", "Name": "Trail Blazers"}, "location": "Oracle Arena", "homeTeam": {"ID": "101", "City": "Golden State", "Abbreviation": "GSW", "Name": "Warriors"}, "time": "7:00PM"}, {"id": "32463", "date": "2016-05-01", "awayTeam": {"ID": "93", "City": "Charlotte", "Abbreviation": "CHA", "Name": "Hornets"}, "location": "American Airlines Arena", "homeTeam": {"ID": "92", "City": "Miami", "Abbreviation": "MIA", "Name": "Heat"}, "time": "7:00PM"}, {"id": "32467", "date": "2016-05-02", "awayTeam": {"ID": "96", "City": "Oklahoma City", "Abbreviation": "OKL", "Name": "Thunder"}, "location": "AT&T Center", "homeTeam": {"ID": "106", "City": "San Antonio", "Abbreviation": "SAS", "Name": "Spurs"}, "time": "7:00PM"}, {"id": "32466", "date": "2016-05-02", "awayTeam": {"ID": "91", "City": "Atlanta", "Abbreviation": "ATL", "Name": "Hawks"}, "location": "Quicken Loans Arena", "homeTeam": {"ID": "86", "City": "Cleveland", "Abbreviation": "CLE", "Name": "Cavaliers"}, "time": "7:00PM"}, {"id": "32468", "date": "2016-05-03", "awayTeam": {"ID": "92", "City": "Miami", "Abbreviation": "MIA", "Name": "Heat"}, "location": "Air Canada Centre", "homeTeam": {"ID": "81", "City": "Toronto", "Abbreviation": "TOR", "Name": "Raptors"}, "time": "7:00PM"}, {"id": "32469", "date": "2016-05-03", "awayTeam": {"ID": "97", "City": "Portland", "Abbreviation": "POR", "Name": "Trail Blazers"}, "location": "Oracle Arena", "homeTeam": {"ID": "101", "City": "Golden State", "Abbreviation": "GSW", "Name": "Warriors"}, "time": "7:00PM"}, {"id": "32470", "date": "2016-05-04", "awayTeam": {"ID": "91", "City": "Atlanta", "Abbreviation": "ATL", "Name": "Hawks"}, "location": "Quicken Loans Arena", "homeTeam": {"ID": "86", "City": "Cleveland", "Abbreviation": "CLE", "Name": "Cavaliers"}, "time": "7:00PM"}, {"id": "32471", "date": "2016-05-05", "awayTeam": {"ID": "92", "City": "Miami", "Abbreviation": "MIA", "Name": "Heat"}, "location": "Air Canada Centre", "homeTeam": {"ID": "81", "City": "Toronto", "Abbreviation": "TOR", "Name": "Raptors"}, "time": "7:00PM"}, {"id": "32472", "date": "2016-05-06", "awayTeam": {"ID": "86", "City": "Cleveland", "Abbreviation": "CLE", "Name": "Cavaliers"}, "location": "Philips Arena", "homeTeam": {"ID": "91", "City": "Atlanta", "Abbreviation": "ATL", "Name": "Hawks"}, "time": "7:00PM"}, {"id": "32473", "date": "2016-05-06", "awayTeam": {"ID": "106", "City": "San Antonio", "Abbreviation": "SAS", "Name": "Spurs"}, "location": "Chesapeake Energy Arena", "homeTeam": {"ID": "96", "City": "Oklahoma City", "Abbreviation": "OKL", "Name": "Thunder"}, "time": "7:00PM"}, {"id": "32475", "date": "2016-05-07", "awayTeam": {"ID": "101", "City": "Golden State", "Abbreviation": "GSW", "Name": "Warriors"}, "location": "Moda Center", "homeTeam": {"ID": "97", "City": "Portland", "Abbreviation": "POR", "Name": "Trail Blazers"}, "time": "7:00PM"}, {"id": "32474", "date": "2016-05-07", "awayTeam": {"ID": "81", "City": "Toronto", "Abbreviation": "TOR", "Name": "Raptors"}, "location": "American Airlines Arena", "homeTeam": {"ID": "92", "City": "Miami", "Abbreviation": "MIA", "Name": "Heat"}, "time": "7:00PM"}, {"id": "32476", "date": "2016-05-08", "awayTeam": {"ID": "86", "City": "Cleveland", "Abbreviation": "CLE", "Name": "Cavaliers"}, "location": "Philips Arena", "homeTeam": {"ID": "91", "City": "Atlanta", "Abbreviation": "ATL", "Name": "Hawks"}, "time": "7:00PM"}, {"id": "32477", "date": "2016-05-08", "awayTeam": {"ID": "106", "City": "San Antonio", "Abbreviation": "SAS", "Name": "Spurs"}, "location": "Chesapeake Energy Arena", "homeTeam": {"ID": "96", "City": "Oklahoma City", "Abbreviation": "OKL", "Name": "Thunder"}, "time": "7:00PM"}, {"id": "32478", "date": "2016-05-09", "awayTeam": {"ID": "81", "City": "Toronto", "Abbreviation": "TOR", "Name": "Raptors"}, "location": "American Airlines Arena", "homeTeam": {"ID": "92", "City": "Miami", "Abbreviation": "MIA", "Name": "Heat"}, "time": "7:00PM"}, {"id": "32479", "date": "2016-05-09", "awayTeam": {"ID": "101", "City": "Golden State", "Abbreviation": "GSW", "Name": "Warriors"}, "location": "Moda Center", "homeTeam": {"ID": "97", "City": "Portland", "Abbreviation": "POR", "Name": "Trail Blazers"}, "time": "7:00PM"}, {"id": "32480", "date": "2016-05-10", "awayTeam": {"ID": "96", "City": "Oklahoma City", "Abbreviation": "OKL", "Name": "Thunder"}, "location": "AT&T Center", "homeTeam": {"ID": "106", "City": "San Antonio", "Abbreviation": "SAS", "Name": "Spurs"}, "time": "7:00PM"}, {"id": "32481", "date": "2016-05-11", "awayTeam": {"ID": "92", "City": "Miami", "Abbreviation": "MIA", "Name": "Heat"}, "location": "Air Canada Centre", "homeTeam": {"ID": "81", "City": "Toronto", "Abbreviation": "TOR", "Name": "Raptors"}, "time": "7:00PM"}, {"id": "32482", "date": "2016-05-11", "awayTeam": {"ID": "97", "City": "Portland", "Abbreviation": "POR", "Name": "Trail Blazers"}, "location": "Oracle Arena", "homeTeam": {"ID": "101", "City": "Golden State", "Abbreviation": "GSW", "Name": "Warriors"}, "time": "10:30PM"}, {"id": "32483", "date": "2016-05-12", "awayTeam": {"ID": "106", "City": "San Antonio", "Abbreviation": "SAS", "Name": "Spurs"}, "location": "Chesapeake Energy Arena", "homeTeam": {"ID": "96", "City": "Oklahoma City", "Abbreviation": "OKL", "Name": "Thunder"}, "time": "8:30PM"}, {"id": "32484", "date": "2016-05-13", "awayTeam": {"ID": "81", "City": "Toronto", "Abbreviation": "TOR", "Name": "Raptors"}, "location": "American Airlines Arena", "homeTeam": {"ID": "92", "City": "Miami", "Abbreviation": "MIA", "Name": "Heat"}, "time": "8:00PM"}, {"id": "32491", "date": "2016-05-15", "awayTeam": {"ID": "92", "City": "Miami", "Abbreviation": "MIA", "Name": "Heat"}, "location": "Air Canada Centre", "homeTeam": {"ID": "81", "City": "Toronto", "Abbreviation": "TOR", "Name": "Raptors"}, "time": "3:30PM"}, {"id": "32492", "date": "2016-05-16", "awayTeam": {"ID": "96", "City": "Oklahoma City", "Abbreviation": "OKL", "Name": "Thunder"}, "location": "Oracle Arena", "homeTeam": {"ID": "101", "City": "Golden State", "Abbreviation": "GSW", "Name": "Warriors"}, "time": "9:00PM"}, {"id": "32494", "date": "2016-05-17", "awayTeam": {"ID": "81", "City": "Toronto", "Abbreviation": "TOR", "Name": "Raptors"}, "location": "Quicken Loans Arena", "homeTeam": {"ID": "86", "City": "Cleveland", "Abbreviation": "CLE", "Name": "Cavaliers"}, "time": "8:30PM"}, {"id": "32493", "date": "2016-05-18", "awayTeam": {"ID": "96", "City": "Oklahoma City", "Abbreviation": "OKL", "Name": "Thunder"}, "location": "Oracle Arena", "homeTeam": {"ID": "101", "City": "Golden State", "Abbreviation": "GSW", "Name": "Warriors"}, "time": "9:00PM"}, {"id": "40341", "date": "2016-05-19", "awayTeam": {"ID": "81", "City": "Toronto", "Abbreviation": "TOR", "Name": "Raptors"}, "location": "Quicken Loans Arena", "homeTeam": {"ID": "86", "City": "Cleveland", "Abbreviation": "CLE", "Name": "Cavaliers"}, "time": "8:30PM"}, {"id": "32496", "date": "2016-05-21", "awayTeam": {"ID": "86", "City": "Cleveland", "Abbreviation": "CLE", "Name": "Cavaliers"}, "location": "Air Canada Centre", "homeTeam": {"ID": "81", "City": "Toronto", "Abbreviation": "TOR", "Name": "Raptors"}, "time": "8:30PM"}, {"id": "32497", "date": "2016-05-22", "awayTeam": {"ID": "101", "City": "Golden State", "Abbreviation": "GSW", "Name": "Warriors"}, "location": "Chesapeake Energy Arena", "homeTeam": {"ID": "96", "City": "Oklahoma City", "Abbreviation": "OKL", "Name": "Thunder"}, "time": "8:00PM"}, {"id": "32498", "date": "2016-05-23", "awayTeam": {"ID": "86", "City": "Cleveland", "Abbreviation": "CLE", "Name": "Cavaliers"}, "location": "Air Canada Centre", "homeTeam": {"ID": "81", "City": "Toronto", "Abbreviation": "TOR", "Name": "Raptors"}, "time": "8:30PM"}, {"id": "32499", "date": "2016-05-24", "awayTeam": {"ID": "101", "City": "Golden State", "Abbreviation": "GSW", "Name": "Warriors"}, "location": "Chesapeake Energy Arena", "homeTeam": {"ID": "96", "City": "Oklahoma City", "Abbreviation": "OKL", "Name": "Thunder"}, "time": "9:00PM"}, {"id": "32500", "date": "2016-05-25", "awayTeam": {"ID": "81", "City": "Toronto", "Abbreviation": "TOR", "Name": "Raptors"}, "location": "Quicken Loans Arena", "homeTeam": {"ID": "86", "City": "Cleveland", "Abbreviation": "CLE", "Name": "Cavaliers"}, "time": "8:30PM"}, {"id": "32501", "date": "2016-05-26", "awayTeam": {"ID": "96", "City": "Oklahoma City", "Abbreviation": "OKL", "Name": "Thunder"}, "location": "Oracle Arena", "homeTeam": {"ID": "101", "City": "Golden State", "Abbreviation": "GSW", "Name": "Warriors"}, "time": "9:00PM"}, {"id": "32502", "date": "2016-05-27", "awayTeam": {"ID": "86", "City": "Cleveland", "Abbreviation": "CLE", "Name": "Cavaliers"}, "location": "Air Canada Centre", "homeTeam": {"ID": "81", "City": "Toronto", "Abbreviation": "TOR", "Name": "Raptors"}, "time": "8:30PM"}, {"id": "32503", "date": "2016-05-28", "awayTeam": {"ID": "101", "City": "Golden State", "Abbreviation": "GSW", "Name": "Warriors"}, "location": "Chesapeake Energy Arena", "homeTeam": {"ID": "96", "City": "Oklahoma City", "Abbreviation": "OKL", "Name": "Thunder"}, "time": "9:00PM"}, {"id": "32522", "date": "2016-05-30", "awayTeam": {"ID": "96", "City": "Oklahoma City", "Abbreviation": "OKL", "Name": "Thunder"}, "location": "Oracle Arena", "homeTeam": {"ID": "101", "City": "Golden State", "Abbreviation": "GSW", "Name": "Warriors"}, "time": "9:00PM"}, {"id": "40342", "date": "2016-06-02", "awayTeam": {"ID": "86", "City": "Cleveland", "Abbreviation": "CLE", "Name": "Cavaliers"}, "location": "Oracle Arena", "homeTeam": {"ID": "101", "City": "Golden State", "Abbreviation": "GSW", "Name": "Warriors"}, "time": "9:00PM"}, {"id": "32524", "date": "2016-06-05", "awayTeam": {"ID": "86", "City": "Cleveland", "Abbreviation": "CLE", "Name": "Cavaliers"}, "location": "Oracle Arena", "homeTeam": {"ID": "101", "City": "Golden State", "Abbreviation": "GSW", "Name": "Warriors"}, "time": "8:00PM"}, {"id": "32525", "date": "2016-06-08", "awayTeam": {"ID": "101", "City": "Golden State", "Abbreviation": "GSW", "Name": "Warriors"}, "location": "Quicken Loans Arena", "homeTeam": {"ID": "86", "City": "Cleveland", "Abbreviation": "CLE", "Name": "Cavaliers"}, "time": "9:00PM"}, {"id": "32526", "date": "2016-06-10", "awayTeam": {"ID": "101", "City": "Golden State", "Abbreviation": "GSW", "Name": "Warriors"}, "location": "Quicken Loans Arena", "homeTeam": {"ID": "86", "City": "Cleveland", "Abbreviation": "CLE", "Name": "Cavaliers"}, "time": "9:00PM"}, {"id": "32527", "date": "2016-06-13", "awayTeam": {"ID": "86", "City": "Cleveland", "Abbreviation": "CLE", "Name": "Cavaliers"}, "location": "Oracle Arena", "homeTeam": {"ID": "101", "City": "Golden State", "Abbreviation": "GSW", "Name": "Warriors"}, "time": "9:00PM"}, {"id": "40345", "date": "2016-06-16", "awayTeam": {"ID": "101", "City": "Golden State", "Abbreviation": "GSW", "Name": "Warriors"}, "location": "Quicken Loans Arena", "homeTeam": {"ID": "86", "City": "Cleveland", "Abbreviation": "CLE", "Name": "Cavaliers"}, "time": "9:00PM"}, {"id": "40346", "date": "2016-06-19", "awayTeam": {"ID": "86", "City": "Cleveland", "Abbreviation": "CLE", "Name": "Cavaliers"}, "location": "Oracle Arena", "homeTeam": {"ID": "101", "City": "Golden State", "Abbreviation": "GSW", "Name": "Warriors"}, "time": "8:00PM"}], "lastUpdatedOn": "2017-08-16 2:22:25 AM"}}